     2.11           OBSERVATION DATA    M (MIXED)           RINEX VERSION / TYPE
teqc  2019Feb25                         20211013 16:58:15UTCPGM / RUN BY / DATE
OSX ker:10.11.6|Core i5|gcc 4.3 -m64|OSX ker:10.10+|=+      COMMENT
-Unknown-                                                   MARKER NAME
-Unknown-           -Unknown-                               OBSERVER / AGENCY
-Unknown-           U-BLOX              -Unknown-           REC # / TYPE / VERS
-Unknown-           UBLOX           NONE                    ANT # / TYPE
        0.0000        0.0000        0.0000                  APPROX POSITION XYZ
        0.0000        0.0000        0.0000                  ANTENNA: DELTA H/E/N
     1     0                                                WAVELENGTH FACT L1/2
     4    L1    C1    S1    D1                              # / TYPES OF OBSERV
 SNR is mapped to RINEX snr flag value [0-9]                COMMENT
  L1 & L2: min(max(int(snr_dBHz/6), 0), 9)                  COMMENT
  2021    10    13    16    56   37.9940000     GPS         TIME OF FIRST OBS
    18                                                      LEAP SECONDS
                                                            END OF HEADER
 21 10 13 16 56 37.9940000  0 26G05G10G13G15G18R10R22R09R16R01G23G24
                                G27E03E05R24R23R07R08E08E09E13E15G29
                                E31E36
 114469433.988 6  21782808.976          39.000       -3055.208
 114572149.704 6  21802354.946          38.000        2690.658
 109089245.727 6  20758995.947          36.000       -3245.913
  98485753.889 7  18741216.490          42.000       -1966.462
  97349914.936 7  18525072.880          43.000        -673.502
 116013663.085 5  21763874.064          33.000        3909.219
 106401792.283 4  19932641.004          29.000       -4216.939
 108330138.087 6  20286752.581          36.000        1940.328
 112191962.905 5  21002561.942          31.000       -1416.760
 112531465.133 6  21051331.614          38.000        2788.692
 100898452.009 7  19200337.645          43.000        1565.488
 103086276.948 6  19616665.901          41.000        2476.570
 118706645.759 6  22589124.252          38.000         277.931
 118063309.176 7  22466701.435          43.000        1189.336
 115568109.538 7  21991882.658          42.000       -1257.325
 110707771.277 4  20702918.326          27.000        3183.602
  98204446.064 7  18358280.474          42.000         265.059
  99818621.542 7  18646958.098          42.000       -2067.523
  97515650.241 7  18210363.103          42.000         799.798
 130011758.833 6  24740415.051          36.000        2386.665
 125560131.305 5  23893294.537          33.000       -2646.276
 137713043.079 4  26205910.668          29.000        2715.297
 117296001.753 7  22320687.558          42.000         800.230
                  23944481.634          20.000       -3565.856
 138729260.479 4  26399283.458          26.000         614.788

 21 10 13 16 56 41.9940000  0 25G05G10G13G15G18R10R22R09R16R01G23G24
                                G27E03E05R24R23R07R08E08E09E13E15E31
                                E36
 114481655.669 6  21785134.717          39.000       -3055.935
 114561386.976 6  21800307.074          38.000        2690.517
 109102232.818 6  20761467.315          36.000       -3246.639
  98493622.855 7  18742713.630          42.000       -1968.233
  97352614.861 7  18525586.790          43.000        -676.281
 115998025.295 5  21760940.512          34.000        3909.711
 106418661.507 4  19935801.321          29.000       -4217.777
 108322381.747 6  20285299.967          38.000        1937.813
 112197636.712 5  21003623.859          32.000       -1420.272
 112520312.029 6  21049245.130          39.000        2788.167
 100892192.680 7  19199146.480          42.000        1564.150
 103076374.581 6  19614781.631          41.000        2474.395
 118705539.542 6  22588913.707          38.000         275.389
 118058553.603 7  22465796.435          43.000        1188.188
 115573139.891 7  21992840.008          42.000       -1257.904
 110695041.254 5  20700537.561          31.000        3181.572
  98203394.651 7  18358083.692          42.000         260.917
  99826894.117 7  18648503.780          43.000       -2068.875
  97512454.207 7  18209766.230          42.000         798.180
 130002211.840 6  24738599.062          36.000        2386.653
 125570717.483 5  23895308.813          32.000       -2647.024
 137702183.410 5  26203847.137          30.000        2714.009
 117292804.864 7  22320079.433          42.000         798.178
 138726804.936 4  26398818.410          27.000         613.028

 21 10 13 16 56 42.9940000  0 25G05G10G13G15G18R10R22R09R16R01G23G24
                                G27E03E05R24R23R07R08E08E09E13E15E31
                                E36
 114484711.391 6  21785716.180          39.000       -3055.953
 114558696.331 6  21799795.280          38.000        2690.458
 109105480.095 6  20762085.295          36.000       -3247.645
  98495591.060 7  18743088.117          42.000       -1968.217
  97353291.411 7  18525715.513          43.000        -677.131
 115994115.997 5  21760207.236          34.000        3909.145
 106422879.732 4  19936591.544          29.000       -4218.165
 108320444.308 6  20284937.045          38.000        1937.133
 112199057.091 5  21003890.003          32.000       -1421.668
 112517524.126 6  21048723.591          39.000        2787.739
 100890628.459 7  19198848.810          42.000        1563.860
 103073900.183 6  19614310.883          41.000        2474.143
 118705264.508 6  22588861.362          37.000         274.590
 118057365.243 7  22465570.251          43.000        1188.217
 115574397.948 7  21993079.600          42.000       -1258.206
 110691860.095 5  20699942.763          32.000        3181.083
  98203134.097 7  18358034.871          42.000         259.999
  99828962.770 7  18648890.322          43.000       -2069.096
  97511656.087 7  18209617.204          42.000         797.634
 129999825.240 6  24738145.164          36.000        2386.515
 125573363.899 5  23895812.340          32.000       -2646.061
 137699468.784 5  26203330.717          30.000        2713.680
 117292006.694 7  22319927.445          42.000         797.739
 138726192.048 4  26398701.890          27.000         612.713

 21 10 13 16 56 43.9940000  0 25G05G10G13G15G18R10R22R09R16R01G23G24
                                G27E03E05R24R23R07R08E08E09E13E15E31
                                E36
 114487767.085 6  21786297.661          39.000       -3055.992
 114556005.581 6  21799283.270          38.000        2690.721
 109108727.366 6  20762703.227          36.000       -3247.363
  98497559.507 7  18743462.816          42.000       -1968.575
  97353968.418 7  18525844.190          43.000        -677.200
 115990206.639 5  21759473.893          34.000        3909.492
 106427098.184 4  19937381.716          29.000       -4218.509
 108318507.390 6  20284574.383          37.000        1936.521
 112200478.020 5  21004156.076          32.000       -1420.925
 112514736.212 6  21048201.920          39.000        2787.812
 100889064.324 7  19198551.172          42.000        1564.108
 103071426.125 6  19613839.983          41.000        2473.998
 118704989.915 6  22588809.186          37.000         274.355
 118056176.961 7  22465344.186          43.000        1188.426
 115575656.028 7  21993318.970          42.000       -1258.020
 110688679.247 5  20699347.934          32.000        3181.646
  98202874.323 7  18357986.268          42.000         259.475
  99831031.499 7  18649276.818          43.000       -2068.758
  97510858.139 7  18209468.182          42.000         797.928
 129997438.534 6  24737691.108          36.000        2386.754
 125576010.182 5  23896315.698          32.000       -2645.959
 137696754.063 5  26202814.828          30.000        2714.917
 117291208.767 7  22319775.569          42.000         797.900
 138725579.406 4  26398585.672          27.000         613.088

 21 10 13 16 56 44.9940000  0 25G05G10G13G15G18R10R22R09R16R01G23G24
                                G27E03E05R24R23R07R08E08E09E13E15E31
                                E36
 114490822.775 6  21786879.084          39.000       -3056.021
 114553314.752 6  21798771.284          38.000        2690.660
 109111974.730 6  20763321.291          36.000       -3247.547
  98499528.237 7  18743837.311          42.000       -1968.910
  97354645.954 7  18525973.012          43.000        -677.795
 115986297.191 5  21758740.636          34.000        3909.139
 106431316.919 4  19938172.192          29.000       -4219.100
 108316570.985 6  20284211.759          37.000        1936.102
 112201899.752 5  21004422.265          32.000       -1422.664
 112511948.319 6  21047680.390          39.000        2787.788
 100887500.343 7  19198253.590          43.000        1563.538
 103068952.418 6  19613369.272          40.000        2473.560
 118704715.841 6  22588757.107          37.000         273.474
 118054988.791 7  22465118.126          43.000        1187.940
 115576914.170 7  21993558.553          42.000       -1258.255
 110685498.840 5  20698753.021          31.000        3180.346
  98202615.354 7  18357937.799          42.000         258.481
  99833100.349 7  18649663.385          43.000       -2069.163
  97510060.446 7  18209319.285          42.000         797.362
 129995051.773 5  24737237.026          35.000        2386.293
 125578656.293 5  23896819.049          32.000       -2645.781
 137694039.403 5  26202298.550          31.000        2714.238
 117290411.163 7  22319623.834          42.000         797.242
 138724967.099 4  26398469.065          27.000         612.323

 21 10 13 16 56 45.9940000  0 25G05G10G13G15G18R10R22R09R16R01G23G24
                                G27E03E05R24R23R07R08E08E09E13E15E31
                                E36
 114493878.658 6  21787460.574          39.000       -3055.539
 114550624.009 6  21798259.235          38.000        2691.164
 109115222.342 6  20763939.245          36.000       -3247.361
  98501497.440 7  18744212.040          42.000       -1969.207
  97355324.191 7  18526102.056          43.000        -678.270
 115982387.902 5  21758007.370          34.000        3908.953
 106435536.074 5  19938962.790          30.000       -4218.962
 108314635.340 6  20283849.297          37.000        1935.396
 112203322.322 5  21004688.049          32.000       -1423.053
 112509160.670 6  21047158.870          38.000        2787.771
 100885936.667 7  19197956.004          43.000        1563.660
 103066479.286 6  19612898.582          40.000        2473.174
 118704442.398 6  22588705.083          37.000         273.462
 118053800.915 7  22464891.999          43.000        1188.001
 115578172.592 7  21993798.062          42.000       -1258.262
 110682319.040 5  20698158.413          31.000        3179.888
  98202357.374 7  18357889.539          42.000         257.802
  99835169.510 7  18650049.925          43.000       -2068.937
  97509263.187 7  18209170.422          42.000         797.191
 129992665.131 5  24736782.617          35.000        2387.083
 125581302.500 5  23897322.221          32.000       -2645.807
 137691324.899 5  26201782.210          31.000        2715.195
 117289614.050 7  22319472.288          42.000         797.058
 138724355.290 4  26398352.785          27.000         611.698

 21 10 13 16 56 46.9940000  0 25G05G10G13G15G18R10R22R09R16R01G23G24
                                G27E03E05R24R23R07R08E08E09E13E15E31
                                E36
 114496934.716 6  21788042.070          39.000       -3055.913
 114547933.368 6  21797747.340          38.000        2690.651
 109118470.205 6  20764557.352          36.000       -3248.107
  98503467.049 7  18744586.811          42.000       -1969.937
  97356003.095 7  18526231.289          43.000        -679.307
 115978478.665 5  21757274.186          35.000        3909.432
 106439755.563 4  19939753.226          29.000       -4218.970
 108312700.337 6  20283487.027          38.000        1934.954
 112204745.749 5  21004954.583          32.000       -1423.320
 112506373.224 6  21046637.367          38.000        2787.236
 100884373.275 7  19197658.477          43.000        1563.400
 103064006.680 6  19612428.047          40.000        2472.098
 118704169.612 6  22588653.272          37.000         272.946
 118052613.285 7  22464665.974          43.000        1187.588
 115579431.218 7  21994037.470          42.000       -1258.763
 110679139.842 5  20697563.838          32.000        3178.635
  98202100.335 7  18357841.470          42.000         256.745
  99837238.922 7  18650436.599          43.000       -2069.563
  97508466.311 7  18209021.617          42.000         796.586
 129990278.589 5  24736328.438          35.000        2386.710
 125583948.666 5  23897825.862          32.000       -2645.799
 137688610.551 5  26201265.529          31.000        2714.605
 117288817.386 7  22319320.875          42.000         796.483
 138723743.805 4  26398236.547          27.000         611.507

 21 10 13 16 56 47.9940000  0 25G05G10G13G15G18R10R22R09R16R01G23G24
                                G27E03E05R24R23R07R08E08E09E13E15E31
                                E36
 114499990.746 6  21788623.684          38.000       -3056.183
 114545242.588 6  21797235.504          38.000        2690.711
 109121718.092 6  20765175.421          37.000       -3248.209
  98505436.923 7  18744961.611          42.000       -1970.456
  97356682.471 7  18526360.617          43.000        -679.881
 115974569.393 5  21756540.776          35.000        3908.896
 106443975.427 5  19940543.668          30.000       -4220.415
 108310765.874 6  20283124.866          38.000        1933.741
 112206169.879 5  21005221.035          32.000       -1424.099
 112503585.760 6  21046115.932          38.000        2787.088
 100882810.000 7  19197361.083          43.000        1563.007
 103061534.400 6  19611957.536          40.000        2471.863
 118703897.331 6  22588601.518          37.000         272.040
 118051425.757 7  22464440.122          43.000        1187.195
 115580689.884 7  21994277.047          42.000       -1258.831
 110675960.932 5  20696969.523          31.000        3179.303
  98201844.080 7  18357793.505          42.000         255.662
  99839308.406 7  18650823.151          43.000       -2069.727
  97507669.610 7  18208872.805          42.000         796.177
 129987891.992 5  24735874.394          35.000        2386.091
 125586594.699 5  23898329.273          31.000       -2646.013
 137685896.191 5  26200748.289          31.000        2713.932
 117288021.009 7  22319169.452          42.000         795.972
 138723132.757 4  26398120.425          28.000         610.517

 21 10 13 16 56 48.9940000  0 25G05G10G13G15G18R10R22R09R16R01G23G24
                                G27E03E05R24R23R07R08E08E09E13E15E31
                                E36
 114503047.061 6  21789205.287          38.000       -3056.334
 114542552.010 6  21796723.524          38.000        2690.577
 109124966.332 6  20765793.503          37.000       -3248.447
  98507407.333 7  18745336.578          42.000       -1970.772
  97357362.654 7  18526490.053          44.000        -680.501
 115970660.340 5  21755807.450          35.000        3908.418
 106448195.705 4  19941334.290          29.000       -4220.558
 108308832.196 6  20282762.634          38.000        1933.120
 112207594.984 5  21005487.951          32.000       -1426.381
 112500798.628 6  21045594.540          38.000        2786.388
 100881247.133 7  19197063.754          43.000        1562.724
 103059062.765 6  19611487.257          40.000        2471.488
 118703625.811 6  22588549.885          37.000         271.147
 118050238.598 7  22464214.136          43.000        1186.848
 115581948.924 7  21994516.567          42.000       -1259.310
 110672782.793 5  20696375.075          31.000        3178.131
  98201588.921 7  18357745.871          42.000         254.550
  99841378.306 7  18651209.825          43.000       -2070.279
  97506873.385 7  18208724.085          42.000         795.980
 129985505.606 5  24735420.367          35.000        2385.929
 125589240.838 5  23898832.692          31.000       -2645.961
 137683182.068 5  26200231.536          31.000        2714.092
 117287225.214 7  22319018.002          42.000         795.586
 138722522.197 4  26398003.821          28.000         610.239

 21 10 13 16 56 50.9940000  0 25G05G10G13G15G18R10R22R09R16R01G23G24
                                G27E03E05R24R23R07R08E08E09E13E15E31
                                E36
 114509160.137 6  21790368.590          38.000       -3057.143
 114537170.980 6  21795699.744          38.000        2690.306
 109131463.457 6  20767029.865          37.000       -3249.157
  98511349.392 7  18746086.762          42.000       -1971.743
  97358724.955 7  18526749.528          43.000        -681.911
 115962842.443 5  21754341.120          34.000        3908.629
 106456637.443 5  19942915.664          30.000       -4221.379
 108304966.976 6  20282038.810          38.000        1931.453
 112210447.450 5  21006022.181          33.000       -1427.193
 112495224.806 6  21044551.943          38.000        2786.625
 100878122.204 7  19196469.195          43.000        1561.931
 103054121.038 6  19610546.750          40.000        2469.817
 118703084.660 6  22588447.014          37.000         269.497
 118047865.014 7  22463762.467          43.000        1186.165
 115584467.563 7  21994995.788          42.000       -1259.775
 110666428.142 5  20695186.241          30.000        3176.577
  98201081.425 7  18357651.119          42.000         252.719
  99845518.871 7  18651983.219          43.000       -2070.643
  97505281.998 7  18208426.889          42.000         794.960
 129980733.009 5  24734512.294          35.000        2386.265
 125594533.107 5  23899839.649          31.000       -2645.871
 137677754.295 5  26199198.288          31.000        2713.481
 117285634.942 7  22318715.195          42.000         794.627
 138721302.355 4  26397771.691          28.000         609.205

 21 10 13 16 56 51.9940000  0 25G05G10G13G15G18R10R22R09R16R01G23G24
                                G27E03E05R24R23R07R08E08E09E13E15E31
                                E36
 114512216.898 6  21790950.219          38.000       -3056.508
 114534480.582 6  21795187.834          39.000        2690.479
 109134712.346 6  20767648.073          37.000       -3248.779
  98513321.062 7  18746461.885          42.000       -1971.770
  97359407.107 7  18526879.315          44.000        -682.330
 115958933.656 5  21753607.769          34.000        3909.275
 106460858.886 5  19943706.567          30.000       -4221.002
 108303035.380 6  20281677.147          38.000        1931.201
 112211875.011 5  21006289.354          33.000       -1428.310
 112492438.176 6  21044030.679          38.000        2786.756
 100876560.158 7  19196171.916          43.000        1562.200
 103051650.922 6  19610076.751          40.000        2470.057
 118702815.032 6  22588395.817          37.000         269.053
 118046678.598 7  22463536.728          43.000        1186.418
 115585727.226 7  21995235.486          42.000       -1259.700
 110663251.660 5  20694591.961          30.000        3176.157
  98200829.144 7  18357603.983          42.000         251.954
  99847589.535 7  18652370.051          43.000       -2070.562
  97504486.870 7  18208278.359          42.000         795.074
 129978346.882 5  24734058.257          35.000        2386.067
 125597179.279 5  23900343.173          31.000       -2646.518
 137675040.630 5  26198681.870          31.000        2713.515
 117284840.503 7  22318563.999          42.000         794.321
 138720693.087 4  26397656.129          28.000         609.039

 21 10 13 16 57  7.9930000  0 25G05G10G13G15R10R22R09R16R01G18G23G24
                                G27E03R24R23R07R08E05E08E09E13E15E31
                                E36
 112933143.882 6  21490462.779          38.000       -3058.376
 112863459.538 6  21477202.564          39.000        2690.474
 107558731.141 6  20467746.239          37.000       -3252.184
  96916926.342 7  18442678.402          42.000       -1977.645
 114245071.895 5  21432084.790          35.000        3907.988
 104874766.028 5  19646577.729          31.000       -4226.689
 106617928.925 6  19966113.056          38.000        1921.040
 110579926.416 5  20700794.301          33.000       -1440.620
 110791805.605 6  20725898.467          38.000        2784.546
  95742417.572 7  18219176.373          44.000        -692.091
  99223611.977 7  18881625.962          42.000        1558.258
 101384192.915 6  19292770.641          41.000        2462.133
 117070588.537 5  22277792.308          35.000         260.503
 116399737.729 7  22150133.714          43.000        1182.977
 108955926.825 6  20375308.060          38.000        3167.636
  96539693.107 7  18047077.219          43.000         237.261
  98222394.732 7  18348768.701          42.000       -2074.087
  95832881.507 6  17896114.731          41.000         789.626
 113977928.482 7  21689278.744          42.000       -1262.301
 128312196.046 5  24416998.952          35.000        2385.559
 124011448.368 5  23598593.656          31.000       -2645.778
 136003599.048 4  25880624.564          29.000        2712.103
 115644201.154 7  22006359.855          42.000         788.148
 137082953.413 4  26086017.743          29.000         602.882

 21 10 13 16 57  9.9930000  0 25G05G10G13G15R10R22R09R16R01G18G23G24
                                G27E03R24R23R07R08E05E08E09E13E15E31
                                E36
 112939261.114 6  21491626.854          38.000       -3058.869
 112858079.074 6  21476178.622          39.000        2689.854
 107565234.857 6  20468984.082          37.000       -3252.357
  96920882.596 7  18443431.327          42.000       -1978.571
 114237255.933 5  21430618.472          35.000        3907.922
 104883219.052 5  19648161.315          31.000       -4227.159
 106614088.078 6  19965393.777          38.000        1919.042
 110582808.755 5  20701333.695          33.000       -1442.165
 110786236.746 6  20724856.498          38.000        2784.403
  95743803.185 7  18219440.220          44.000        -693.525
  99220495.946 7  18881033.128          42.000        1557.520
 101379269.036 6  19291833.987          41.000        2461.024
 117070069.940 5  22277693.593          34.000         258.364
 116397371.971 7  22149683.713          43.000        1182.331
 108949591.749 6  20374123.378          37.000        3166.749
  96539220.079 7  18046988.994          43.000         235.434
  98226543.144 7  18349543.713          43.000       -2074.777
  95831302.689 7  17895819.886          42.000         788.778
 113980453.565 7  21689759.119          42.000       -1262.941
 128307425.104 5  24416090.578          35.000        2385.192
 124016738.990 5  23599599.861          31.000       -2646.258
 135998175.052 5  25879592.225          30.000        2711.636
 115642626.329 7  22006060.362          42.000         786.722
 137081748.563 4  26085788.733          29.000         601.529

 21 10 13 16 57 10.9930000  0 25G05G10G13G15R10R22R09R16R01G18G23G24
                                G27E03R24R23R07R08E05E08E09E13E15E31
                                E36
 112942319.986 6  21492209.074          38.000       -3059.299
 112855388.942 6  21475666.704          39.000        2690.099
 107568487.053 6  20469603.047          37.000       -3252.325
  96922861.375 7  18443808.029          42.000       -1979.166
 114233348.171 5  21429885.394          35.000        3907.029
 104887447.191 5  19648953.265          31.000       -4227.501
 106612168.677 6  19965034.360          38.000        1918.986
 110584251.155 5  20701603.858          32.000       -1442.739
 110783452.614 6  20724335.561          38.000        2784.347
  95744497.004 7  18219572.297          44.000        -694.311
  99218938.354 7  18880736.846          42.000        1557.281
 101376807.872 6  19291365.737          41.000        2460.730
 117069811.609 5  22277644.543          35.000         257.603
 116396189.480 7  22149458.652          43.000        1182.322
 108946425.091 6  20373531.308          37.000        3166.164
  96538985.005 7  18046945.171          43.000         234.592
  98228617.734 7  18349931.374          43.000       -2075.115
  95830513.859 7  17895672.510          42.000         788.513
 113981716.457 7  21689999.512          42.000       -1263.164
 128305039.793 5  24415636.714          35.000        2384.894
 124019384.232 5  23600102.925          31.000       -2645.110
 135995463.283 5  25879076.047          30.000        2712.010
 115641839.598 7  22005910.782          42.000         786.312
 137081146.834 4  26085674.026          29.000         601.188

 21 10 13 16 57 12.9930000  0 25G05G10G13G15R10R22R09R16R01G18G23G24
                                G27E03R24R23R07R08E05E08E09E13E15E31
                                E36
 112948438.861 6  21493373.519          39.000       -3059.950
 112850009.585 6  21474643.016          39.000        2689.287
 107574992.850 6  20470841.226          38.000       -3253.397
  96926820.892 7  18444561.577          42.000       -1980.434
 114225533.568 5  21428419.280          35.000        3907.125
 104895905.361 5  19650537.882          31.000       -4230.068
 106608332.760 6  19964315.949          38.000        1916.452
 110587139.216 5  20702144.174          32.000       -1444.712
 110777885.622 6  20723294.062          38.000        2782.934
  95745887.317 7  18219837.041          44.000        -696.247
  99215824.762 7  18880144.398          42.000        1556.030
 101371887.840 6  19290429.555          41.000        2459.055
 117069297.566 5  22277546.862          35.000         255.983
 116393825.991 7  22149008.811          43.000        1181.187
 108940094.236 6  20372347.529          37.000        3164.631
  96538518.454 7  18046858.109          43.000         231.749
  98232768.425 7  18350706.931          43.000       -2075.917
  95828938.027 7  17895378.277          42.000         787.395
 113984243.569 7  21690480.256          42.000       -1263.967
 128300270.112 6  24414729.061          36.000        2384.721
 124024675.631 5  23601109.977          30.000       -2645.587
 135990040.887 5  25878045.030          30.000        2710.995
 115640268.214 7  22005611.435          42.000         785.050
 137079945.361 5  26085447.333          30.000         600.704

 21 10 13 16 57 13.9930000  0 25G05G10G13G15R10R22R09R16R01G18G23G24
                                G27E03R24R23R07R08E05E08E09E13E15E31
                                E36
 112951498.609 6  21493955.774          39.000       -3059.626
 112847320.099 6  21474131.278          39.000        2689.365
 107578246.174 6  20471460.509          38.000       -3253.194
  96928801.372 7  18444938.490          42.000       -1980.542
 114221626.530 5  21427686.363          35.000        3907.147
 104900135.054 5  19651330.178          31.000       -4228.966
 106606415.911 6  19963956.877          38.000        1916.532
 110588584.548 5  20702414.666          32.000       -1445.983
 110775102.456 6  20722773.472          38.000        2783.607
  95746583.546 7  18219969.591          44.000        -696.181
  99214268.459 7  18879848.218          42.000        1556.244
 101369428.665 6  19289961.672          41.000        2459.456
 117069041.615 5  22277498.215          35.000         256.019
 116392644.701 7  22148784.181          43.000        1181.467
 108936929.732 6  20371755.792          38.000        3164.300
  96538286.688 7  18046814.877          43.000         231.431
  98234844.263 7  18351094.638          43.000       -2075.608
  95828150.759 7  17895231.272          42.000         787.440
 113985507.551 7  21690721.073          42.000       -1263.927
 128297885.542 6  24414275.329          36.000        2384.659
 124027321.427 5  23601612.899          30.000       -2646.074
 135987330.057 5  25877529.386          30.000        2710.899
 115639483.299 7  22005462.202          42.000         784.924
 137079345.351 5  26085337.120          30.000         600.801

 21 10 13 16 57 17.9930000  0 25G05G10G13G15R10R22R09R16R01G18G23G24
                                G27E03R24R23R07R08E05E08E09E13E15E31
                                E36
 112963740.004 6  21496285.127          39.000       -3060.848
 112836563.538 6  21472084.252          40.000        2689.033
 107591262.424 6  20473937.583          38.000       -3254.567
  96936728.305 7  18446446.846          42.000       -1982.606
 114206000.166 5  21424754.588          35.000        3906.542
 104917056.757 5  19654500.074          31.000       -4231.403
 106598756.195 6  19962521.838          37.000        1913.695
 110594375.151 5  20703498.365          32.000       -1449.442
 110763972.540 6  20720691.510          38.000        2781.908
  95749375.905 7  18220501.078          44.000        -699.465
  99208046.906 7  18878664.377          42.000        1554.755
 101359598.036 6  19288091.093          41.000        2456.658
 117068024.977 5  22277304.571          35.000         252.528
 116387922.922 7  22147885.785          43.000        1179.811
 108924278.186 6  20369389.727          39.000        3161.870
  96537370.124 7  18046643.832          43.000         227.202
  98243150.873 7  18352646.597          43.000       -2077.043
  95825006.352 7  17894643.777          42.000         785.358
 113990566.394 7  21691683.749          42.000       -1265.077
 128288348.814 6  24412460.621          36.000        2384.145
 124037905.301 5  23603627.150          30.000       -2646.158
 135976488.799 5  25875466.849          30.000        2709.765
 115636348.948 7  22004865.294          42.000         782.726
 137076950.697 5  26084881.557          30.000         598.073

 21 10 13 16 57 19.9930000  0 25G05G10G13G15R10R22R09R16R01G18G23G24
                                G27E03R24R23R07R08E05E08E09E13E15E31
                                E36
 112969862.009 6  21497450.185          39.000       -3061.323
 112831186.017 6  21471060.844          40.000        2688.346
 107597772.250 6  20475176.401          37.000       -3255.267
  96940694.675 7  18447201.588          42.000       -1983.542
 114198187.988 5  21423288.768          35.000        3905.923
 104925521.359 5  19656085.565          30.000       -4232.664
 106594930.924 6  19961805.145          37.000        1911.587
 110597275.759 5  20704041.362          32.000       -1451.526
 110758408.998 6  20719650.741          38.000        2781.698
  95750776.424 7  18220767.599          44.000        -701.025
  99204938.206 7  18878072.772          42.000        1553.937
 101354686.246 6  19287156.563          41.000        2455.027
 117067520.852 5  22277208.526          35.000         251.592
 116385563.936 7  22147436.717          43.000        1179.095
 108917956.187 6  20368207.489          39.000        3160.451
  96536917.958 7  18046559.394          42.000         224.961
  98247306.167 7  18353422.907          43.000       -2077.954
  95823436.710 7  17894350.589          42.000         784.206
 113993097.509 7  21692165.609          42.000       -1265.901
 128283581.406 6  24411553.497          36.000        2383.490
 124043197.681 5  23604634.462          30.000       -2646.173
 135971069.446 5  25874435.364          30.000        2709.557
 115634784.884 7  22004567.576          42.000         781.430
 137075756.419 5  26084654.728          30.000         596.362

 21 10 13 16 57 20.9930000  0 25G05G10G13G15R10R22R09R16R01G18G23G24
                                G27E03R24R23R07R08E05E08E09E13E15E31
                                E36
 112972923.463 6  21498032.858          39.000       -3061.838
 112828497.554 6  21470549.091          40.000        2688.263
 107601027.683 6  20475795.950          38.000       -3255.310
  96942678.704 7  18447579.140          42.000       -1984.673
 114194282.230 5  21422555.805          35.000        3905.387
 104929754.480 5  19656878.754          31.000       -4234.007
 106593019.530 6  19961446.911          37.000        1910.487
 110598727.483 5  20704312.916          32.000       -1451.706
 110755627.719 6  20719130.440          38.000        2781.051
  95751477.874 7  18220901.076          44.000        -701.827
  99203384.473 7  18877777.249          42.000        1553.363
 101352231.312 6  19286689.462          41.000        2454.581
 117067269.988 5  22277160.919          35.000         250.250
 116384385.008 7  22147212.451          43.000        1178.641
 108914796.193 6  20367616.646          39.000        3159.671
  96536693.505 7  18046517.457          42.000         223.782
  98249384.399 7  18353811.183          43.000       -2078.524
  95822652.641 7  17894204.165          42.000         783.768
 113994363.570 7  21692406.486          42.000       -1266.237
 128281198.014 6  24411099.967          36.000        2383.191
 124045844.038 5  23605138.108          30.000       -2646.704
 135968360.190 5  25873920.643          30.000        2709.464
 115634003.715 7  22004418.901          42.000         781.122
 137075160.101 5  26084541.182          31.000         596.248

 21 10 13 16 57 21.9930000  0 25G05G10G13G15R10R22R09R16R01G18G23G24
                                G27E03R24R23R07R08E05E08E09E13E15E31
                                E36
 112975984.975 6  21498615.508          39.000       -3061.486
 112825809.070 6  21470037.486          40.000        2688.173
 107604283.283 6  20476415.427          37.000       -3256.137
  96944663.049 7  18447956.786          42.000       -1984.690
 114190376.489 5  21421823.100          35.000        3905.570
 104933987.900 5  19657671.729          30.000       -4233.666
 106591108.760 6  19961088.898          36.000        1910.316
 110600180.006 5  20704584.904          32.000       -1453.164
 110752846.536 6  20718610.150          38.000        2780.693
  95752179.913 7  18221034.615          44.000        -702.557
  99201830.957 7  18877481.701          42.000        1553.076
 101349776.820 6  19286222.386          41.000        2454.154
 117067019.661 5  22277113.418          35.000         249.883
 116383206.270 7  22146988.365          43.000        1178.680
 108911636.728 6  20367025.927          39.000        3159.007
  96536469.927 7  18046475.562          42.000         222.955
  98251462.798 7  18354199.394          43.000       -2078.652
  95821868.919 7  17894057.895          42.000         783.500
 113995629.789 7  21692647.473          42.000       -1266.376
 128278814.650 6  24410646.676          36.000        2383.287
 124048490.342 5  23605641.790          30.000       -2646.564
 135965651.079 5  25873405.714          31.000        2708.151
 115633222.950 7  22004270.359          42.000         780.371
 137074564.213 5  26084428.112          30.000         595.355

 21 10 13 16 57 22.9930000  0 25G05G10G13G15R10R22R09R16R01G18G23G24
                                G27E03R24R23R07R08E05E08E09E13E15E31
                                E36
 112979046.607 6  21499198.077          39.000       -3061.639
 112823120.590 6  21469525.893          40.000        2688.352
 107607539.019 6  20477034.819          37.000       -3255.561
  96946647.770 7  18448334.304          42.000       -1984.506
 114186470.788 5  21421090.178          35.000        3906.057
 104938221.625 5  19658464.930          31.000       -4233.523
 106589198.597 6  19960731.095          36.000        1910.360
 110601633.271 5  20704857.007          33.000       -1454.081
 110750065.475 6  20718089.961          38.000        2781.072
  95752882.542 7  18221168.299          44.000        -702.778
  99200277.641 7  18877185.998          42.000        1553.192
 101347322.786 6  19285755.414          41.000        2454.026
 117066769.910 6  22277065.986          36.000         249.680
 116382027.724 7  22146764.057          43.000        1178.635
 108908477.803 6  20366435.388          40.000        3158.717
  96536247.225 7  18046433.981          42.000         222.537
  98253541.397 7  18354587.787          43.000       -2078.608
  95821085.530 6  17893911.684          41.000         783.444
 113996896.162 7  21692888.474          42.000       -1266.338
 128276431.294 6  24410193.183          36.000        2383.758
 124051136.618 4  23606145.498          29.000       -2646.416
 135962941.954 5  25872890.419          31.000        2709.144
 115632442.575 7  22004121.754          42.000         780.338
 137073968.666 5  26084315.044          31.000         595.117

 21 10 13 16 57 23.9930000  0 25G05G10G13G15R10R22R09R16R01G18G23G24
                                G27E03R24R23R07R08E05E08E09E13E15E31
                                E36
 112982108.100 6  21499780.788          39.000       -3061.400
 112820431.889 6  21469014.294          40.000        2688.949
 107610794.701 6  20477654.365          37.000       -3255.521
  96948632.643 7  18448712.095          42.000       -1984.881
 114182564.941 5  21420357.375          35.000        3905.734
 104942455.531 5  19659258.048          30.000       -4234.239
 106587288.887 6  19960373.349          36.000        1909.962
 110603087.072 5  20705129.141          33.000       -1453.744
 110747284.328 6  20717569.758          38.000        2781.056
  95753585.580 7  18221302.181          44.000        -703.278
  99198724.354 7  18876890.364          42.000        1553.156
 101344869.012 6  19285288.588          41.000        2453.837
 117066520.564 6  22277018.535          36.000         248.844
 116380849.165 7  22146539.700          43.000        1178.556
 108905319.176 6  20365844.873          40.000        3158.545
  96536025.211 7  18046392.381          42.000         221.774
  98255619.983 7  18354976.190          43.000       -2078.643
  95820302.257 7  17893765.392          42.000         783.066
 113998162.470 7  21693129.580          42.000       -1266.390
 128274047.806 6  24409739.559          36.000        2383.289
 124053782.623 4  23606649.291          29.000       -2646.372
 135960232.784 5  25872375.473          31.000        2708.615
 115631662.383 7  22003973.209          42.000         779.899
 137073373.271 5  26084202.029          30.000         595.567

 21 10 13 16 57 24.9930000  0 25G05G10G13G15R10R22R09R16R01G18G23G24
                                G27E03R24R23R07R08E05E08E09E13E15E31
                                E36
 112985169.807 6  21500363.348          39.000       -3062.081
 112817743.313 6  21468502.701          39.000        2688.420
 107614050.641 6  20478273.970          37.000       -3255.666
  96950617.982 7  18449089.974          42.000       -1985.764
 114178659.252 5  21419624.503          35.000        3905.616
 104946689.849 5  19660051.088          30.000       -4234.487
 106585379.876 5  19960015.731          35.000        1908.774
 110604541.735 5  20705401.582          32.000       -1454.348
 110744503.386 6  20717049.494          38.000        2780.785
  95754289.315 7  18221436.044          44.000        -704.189
  99197171.388 7  18876594.869          42.000        1552.631
 101342415.794 6  19284821.837          41.000        2452.782
 117066271.873 6  22276971.259          36.000         248.248
 116379670.908 7  22146315.446          43.000        1177.916
 108902161.135 6  20365254.600          40.000        3157.637
  96535804.192 7  18046350.962          42.000         220.474
  98257698.878 7  18355364.494          43.000       -2079.337
  95819519.373 7  17893619.242          42.000         782.843
 113999429.052 7  21693370.665          42.000       -1266.891
 128271664.424 6  24409286.139          36.000        2383.278
 124056428.645 4  23607152.790          29.000       -2646.759
 135957523.737 5  25871860.026          31.000        2708.564
 115630882.684 7  22003824.914          42.000         779.289
 137072778.395 5  26084088.318          30.000         594.985

 21 10 13 16 57 25.9930000  0 25G05G10G13G15R10R22R09R16R01G18G23G24
                                G27E03R24R23R07R08E05E08E09E13E15E31
                                E36
 112988231.686 6  21500945.986          39.000       -3062.004
 112815054.822 6  21467991.095          39.000        2688.238
 107617306.849 6  20478893.569          37.000       -3256.527
  96952603.765 7  18449467.832          42.000       -1986.294
 114174753.664 5  21418891.708          34.000        3905.815
 104950924.572 5  19660844.281          31.000       -4234.461
 106583471.639 5  19959658.303          35.000        1907.365
 110605997.335 5  20705674.382          32.000       -1456.073
 110741722.662 6  20716529.272          38.000        2780.716
  95754993.747 7  18221570.033          44.000        -705.107
  99195618.732 7  18876299.388          42.000        1552.368
 101339963.151 7  19284355.341          42.000        2452.201
 117066023.850 6  22276924.055          36.000         247.985
 116378492.928 7  22146091.283          43.000        1177.550
 108899003.684 6  20364664.337          41.000        3156.988
  96535584.159 7  18046309.731          42.000         219.476
  98259778.038 7  18355752.976          44.000       -2079.265
  95818736.912 7  17893473.261          42.000         782.141
 114000695.873 7  21693611.757          42.000       -1267.146
 128269281.140 6  24408832.508          36.000        2383.486
 124059074.698 4  23607656.248          29.000       -2646.446
 135954814.904 5  25871344.392          30.000        2708.328
 115630103.473 7  22003676.628          42.000         778.655
 137072184.014 5  26083974.817          31.000         593.879

 21 10 13 16 57 26.9930000  0 25G05G10G13G15R10R22R09R16R01G18G23G24
                                G27E03R24R23R07R08E05E08E09E13E15E31
                                E36
 112991293.755 6  21501528.646          39.000       -3062.313
 112812366.410 6  21467479.520          39.000        2688.520
 107620563.296 6  20479513.096          37.000       -3256.437
  96954589.997 7  18449845.884          42.000       -1986.482
 114170848.225 5  21418158.977          34.000        3905.356
 104955159.716 5  19661637.754          30.000       -4235.196
 106581564.096 5  19959301.038          35.000        1907.093
 110607453.808 5  20705947.139          32.000       -1457.399
 110738942.141 6  20716009.121          38.000        2780.629
  95755698.853 7  18221704.275          44.000        -705.528
  99194066.405 7  18876004.016          42.000        1552.014
 101337511.025 7  19283888.767          42.000        2451.932
 117065776.539 6  22276877.166          36.000         246.931
 116377315.221 7  22145867.175          43.000        1177.531
 108895846.824 6  20364074.210          41.000        3156.541
  96535365.125 7  18046268.827          42.000         218.452
  98261857.499 7  18356141.345          44.000       -2079.677
  95817954.837 7  17893327.142          42.000         781.845
 114001962.931 7  21693852.745          42.000       -1267.154
 128266898.003 6  24408379.159          36.000        2383.468
 124061720.754 4  23608159.722          29.000       -2646.253
 135952106.208 5  25870828.651          30.000        2709.286
 115629324.737 7  22003528.301          42.000         778.492
 137071590.081 5  26083861.848          31.000         593.809

 21 10 13 16 57 27.9930000  0 25G05G10G13G15R10R22R09R16R01G18G23G24
                                G27E03R24R23R07R08E05E08E09E13E15E31
                                E36
 112994356.014 6  21502111.351          39.000       -3062.439
 112809678.113 6  21466967.919          39.000        2688.263
 107623819.989 6  20480132.787          37.000       -3256.887
  96956576.685 7  18450224.071          42.000       -1987.062
 114166942.930 5  21417426.381          34.000        3904.816
 104959395.330 5  19662431.086          30.000       -4235.665
 106579657.270 5  19958943.738          35.000        1906.055
 110608911.111 5  20706220.053          32.000       -1457.783
 110736161.849 6  20715489.096          38.000        2780.099
  95756404.663 7  18221838.734          44.000        -706.303
  99192514.372 7  18875708.765          42.000        1551.776
 101335059.471 7  19283422.256          42.000        2451.107
 117065529.875 6  22276830.337          36.000         246.100
 116376137.817 7  22145643.154          43.000        1176.963
 108892690.591 6  20363484.216          41.000        3155.740
  96535147.089 7  18046228.005          42.000         217.433
  98263937.221 7  18356529.877          44.000       -2079.914
  95817173.173 7  17893181.191          42.000         781.221
 114003230.257 7  21694093.947          42.000       -1267.602
 128264515.011 6  24407925.670          36.000        2382.386
 124064366.899 4  23608663.069          29.000       -2646.383
 135949397.782 5  25870313.097          30.000        2707.690
 115628546.494 7  22003380.063          42.000         777.857
 137070996.586 5  26083748.757          31.000         593.569

 21 10 13 16 57 28.9930000  0 25G05G10G13G15R10R22R09R16R01G18G23G24
                                G27E03R24R23R07R08E05E08E09E13E15E31
                                E36
 112997418.495 6  21502694.142          39.000       -3062.826
 112806989.954 6  21466456.319          40.000        2687.808
 107627076.988 6  20480752.618          37.000       -3257.340
  96958563.865 7  18450602.195          42.000       -1987.637
 114163037.802 5  21416693.690          34.000        3904.929
 104963631.350 5  19663224.390          30.000       -4236.044
 106577751.232 5  19958586.662          35.000        1905.754
 110610369.280 5  20706493.227          33.000       -1459.066
 110733381.822 6  20714968.796          38.000        2779.729
  95757111.197 7  18221973.147          44.000        -707.043
  99190962.698 7  18875413.541          42.000        1551.190
 101332608.494 7  19282955.912          42.000        2450.585
 117065283.921 6  22276783.581          36.000         245.328
 116374960.702 7  22145419.090          43.000        1176.994
 108889534.970 6  20362894.183          41.000        3155.252
  96534930.094 7  18046187.462          42.000         216.421
  98266017.298 7  18356918.507          44.000       -2080.255
  95816391.943 7  17893035.336          42.000         780.862
 114004497.858 7  21694335.277          42.000       -1267.811
 128262132.136 6  24407472.213          36.000        2382.893
 124067013.112 4  23609166.769          29.000       -2646.412
 135946689.512 5  25869797.714          30.000        2707.875
 115627768.758 7  22003232.341          42.000         777.545
 137070403.663 5  26083635.835          30.000         592.550

 21 10 13 16 57 29.9930000  0 25G05G10G13G15R10R22R09R16R01G18G23G24
                                G27E03R24R23R07R08E05E08E09E13E15E31
                                E36
 113000481.167 6  21503276.931          39.000       -3062.893
 112804301.875 6  21465944.760          40.000        2687.975
 107630334.211 6  20481372.497          37.000       -3257.105
  96960551.489 7  18450980.427          42.000       -1987.917
 114159132.831 5  21415960.942          34.000        3904.937
 104967867.816 5  19664018.132          30.000       -4236.374
 106575845.936 5  19958229.734          35.000        1904.931
 110611828.259 5  20706766.604          33.000       -1458.720
 110730601.973 6  20714448.764          38.000        2779.934
  95757818.435 7  18222107.657          44.000        -707.490
  99189411.346 7  18875118.371          42.000        1551.147
 101330158.073 7  19282489.568          42.000        2450.339
 117065038.649 6  22276737.115          37.000         245.244
 116373783.919 7  22145195.333          43.000        1176.638
 108886379.969 6  20362304.245          41.000        3154.394
  96534714.078 7  18046147.077          42.000         215.754
  98268097.671 7  18357307.110          44.000       -2080.439
  95815611.156 7  17892889.653          42.000         780.720
 114005765.706 7  21694576.456          42.000       -1267.916
 128259749.416 6  24407018.793          36.000        2382.896
 124069659.330 4  23609670.202          29.000       -2646.212
 135943981.421 5  25869282.365          30.000        2708.454
 115626991.534 7  22003084.358          42.000         777.244
 137069811.198 5  26083523.083          31.000         592.060

 21 10 13 16 57 30.9930000  0 25G05G10G13G15R10R22R09R16R01G18G23G24
                                G27E03R24R23R07R08E05E08E09E13E15E31
                                E36
 113003543.889 6  21503859.771          40.000       -3062.560
 112801613.788 6  21465433.083          40.000        2688.178
 107633591.594 6  20481992.249          38.000       -3257.080
  96962539.468 7  18451358.855          42.000       -1988.259
 114155227.875 5  21415228.190          34.000        3905.327
 104972104.583 5  19664811.877          30.000       -4236.505
 106573941.247 5  19957872.976          35.000        1904.491
 110613288.041 5  20707040.133          33.000       -1460.167
 110727822.266 6  20713928.671          38.000        2779.259
  95758526.258 7  18222242.354          44.000        -708.095
  99187860.192 7  18874823.209          42.000        1551.270
 101327708.120 7  19282023.379          42.000        2449.694
 117064793.941 6  22276690.797          37.000         244.530
 116372607.291 7  22144971.083          43.000        1176.649
 108883225.429 6  20361714.438          41.000        3154.270
  96534498.959 7  18046106.818          42.000         214.671
  98270178.204 7  18357695.825          44.000       -2080.672
  95814830.674 7  17892743.995          42.000         780.526
 114007033.703 7  21694817.575          42.000       -1268.098
 128257366.705 6  24406565.338          36.000        2382.806
 124072305.512 4  23610174.027          29.000       -2646.145
 135941273.466 5  25868766.929          30.000        2707.257
 115626214.686 7  22002936.359          42.000         776.907
 137069219.089 5  26083410.683          31.000         591.970

 21 10 13 16 57 31.9930000  0 25G05G10G13G15R10R22R09R16R01G18G23G24
                                G27E03R24R23R07R08E05E08E09E13E15E31
                                E36
 113006606.836 6  21504442.696          40.000       -3062.865
 112798925.803 6  21464921.505          40.000        2687.983
 107636849.235 6  20482612.108          38.000       -3257.674
  96964527.889 7  18451737.016          42.000       -1988.722
 114151323.066 5  21414495.659          34.000        3905.261
 104976341.780 5  19665605.729          30.000       -4237.271
 106572037.227 5  19957516.211          35.000        1904.008
 110614748.692 5  20707314.040          33.000       -1461.544
 110725042.709 6  20713408.675          38.000        2779.167
  95759234.776 7  18222377.157          44.000        -708.946
  99186309.372 7  18874528.014          42.000        1550.598
 101325258.702 7  19281557.313          42.000        2449.106
 117064549.902 6  22276644.388          36.000         243.663
 116371430.958 7  22144747.305          43.000        1176.286
 108880071.543 6  20361124.717          41.000        3153.736
  96534284.805 7  18046066.672          42.000         213.661
  98272258.987 7  18358084.506          44.000       -2080.891
  95814050.611 7  17892598.388          42.000         779.853
 114008301.943 7  21695059.004          42.000       -1268.346
 128254984.115 6  24406111.716          36.000        2382.491
 124074951.702 4  23610677.549          29.000       -2646.057
 135938565.586 5  25868251.795          30.000        2708.551
 115625438.339 7  22002788.708          42.000         776.195
 137068627.439 5  26083298.314          31.000         591.879

 21 10 13 16 57 33.9930000  0 25G05G10G13G15R10R22R09R16R01G18G23G24
                                G27E03R24R23R07R08E05E08E09E13E15E31
                                E36
 113012733.214 6  21505608.563          40.000       -3063.165
 112793550.066 6  21463898.575          40.000        2687.879
 107643365.213 6  20483852.216          38.000       -3257.845
  96968506.040 7  18452494.008          42.000       -1989.406
 114143513.853 5  21413030.400          34.000        3904.108
 104984817.411 5  19667193.415          30.000       -4237.758
 106568231.444 5  19956803.273          35.000        1902.164
 110617672.463 5  20707861.289          32.000       -1462.526
 110719484.269 6  20712368.635          38.000        2778.959
  95760653.829 7  18222647.157          45.000        -710.102
  99183208.602 7  18873937.917          42.000        1550.262
 101320361.468 7  19280625.435          42.000        2448.162
 117064063.791 6  22276552.023          36.000         242.584
 116369079.090 7  22144299.845          43.000        1175.797
 108873765.504 6  20359945.411          41.000        3152.619
  96533859.423 7  18045987.030          42.000         211.797
  98276421.395 7  18358862.146          44.000       -2081.230
  95812491.605 7  17892307.247          42.000         779.108
 114010839.120 7  21695541.889          43.000       -1268.740
 128250219.234 6  24405205.129          36.000        2382.652
 124080244.130 4  23611684.840          29.000       -2645.493
 135933150.452 5  25867222.047          31.000        2708.038
 115623887.015 7  22002493.802          42.000         775.383
 137067445.593 5  26083073.492          31.000         590.563

 21 10 13 16 57 36.9930000  0 25G05G10G13G15R10R22R09R16R01G18G23G24
                                G27E03R24R23R07R08E05E08E09E13E15E31
                                E36
 113021924.181 6  21507357.527          40.000       -3064.034
 112785487.099 6  21462364.350          40.000        2687.376
 107653140.972 6  20485712.748          38.000       -3259.279
  96974476.584 7  18453630.302          42.000       -1990.827
 114131800.871 5  21410832.767          34.000        3904.299
 104997533.939 5  19669575.675          30.000       -4239.911
 106562528.063 5  19955735.009          35.000        1899.855
 110622064.649 5  20708684.003          33.000       -1465.313
 110711148.116 6  20710808.868          37.000        2778.233
  95762787.547 7  18223053.317          45.000        -712.450
  99178559.739 7  18873053.253          42.000        1549.158
 101313019.705 7  19279228.349          42.000        2446.213
 117063339.594 6  22276414.288          36.000         240.084
 116365553.363 7  22143628.888          43.000        1174.769
 108864310.902 6  20358177.498          41.000        3150.318
  96533228.702 7  18045868.982          42.000         208.733
  98282667.089 7  18360028.972          44.000       -2082.542
  95810155.987 7  17891870.968          42.000         777.343
 114014646.663 7  21696266.442          43.000       -1269.785
 128243072.794 6  24403844.511          36.000        2381.854
 124088183.059 4  23613195.773          28.000       -2646.725
 135925029.069 5  25865677.256          31.000        2706.844
 115621563.638 7  22002051.322          42.000         773.522
 137065676.256 5  26082737.156          30.000         589.345

 21 10 13 16 57 37.9930000  0 25G05G10G13G15R10R22R09R16R01G18G23G24
                                G27E03R24R23R07R08E05E08E09E13E15E31
                                E36
 113024988.34216  21507940.617          40.000       -3064.295
 112782799.76416  21461852.914          40.000        2687.250
 107656400.17116  20486333.090          38.000       -3259.057
  96976467.80517  18454009.209          42.000       -1991.652
 114127896.97915  21410100.263          34.000        3903.506
 105001773.823 5  19670369.853          30.000       -4240.574
 106560628.53215  19955379.190          35.000        1898.940
 110623530.55015  20708958.302          33.000       -1466.638
 110708369.98816  20710289.033          37.000        2777.752
  95763500.29417  18223188.991          44.000        -713.086
  99177010.88617  18872758.429          42.000        1548.566
 101310573.68417  19278762.952          42.000        2445.614
 117063099.68316  22276368.661          36.000         239.120
 116364378.83017  22143405.333          43.000        1174.260
 108861160.72216  20357588.419          41.000        3149.824
  96533020.56817  18045830.081          42.000         207.716
  98284749.70617  18360418.037          44.000       -2082.819
  95809378.39417  17891725.650          42.000         777.224
 114015916.47217  21696508.082          43.000       -1269.948
 128240691.03516  24403390.968          36.000        2381.457
 124090829.50514  23613699.584          28.000       -2646.029
 135922322.42215  25865162.000          30.000        2706.527
 115620790.27817  22001904.009          42.000         773.018
 137065087.57915  26082625.244          30.000         587.928

 21 10 13 16 57 38.9930000  0 25G05G10G13G15R10R22R09R16R01G18G23G24
                                G27E03R24R23R07R08E05E08E09E13E15E31
                                E36
 113028052.567 6  21508523.696          40.000       -3064.480
 112780112.404 6  21461341.521          40.000        2687.089
 107659659.514 6  20486953.492          39.000       -3259.675
  96978459.329 7  18454388.152          42.000       -1991.774
 114123993.060 5  21409367.810          34.000        3903.623
 105006013.946 5  19671164.117          30.000       -4240.504
 106558729.594 6  19955023.381          36.000        1898.594
 110624997.167 5  20709232.856          32.000       -1467.218
 110705591.906 6  20709769.342          37.000        2777.991
  95764213.619 7  18223324.825          44.000        -713.799
  99175462.215 7  18872463.733          42.000        1548.334
 101308128.088 7  19278297.583          42.000        2445.082
 117062860.299 6  22276323.058          37.000         239.271
 116363204.438 7  22143181.855          43.000        1174.169
 108858010.982 6  20356999.549          41.000        3149.645
  96532813.277 7  18045791.319          42.000         206.821
  98286832.495 7  18360807.230          44.000       -2082.948
  95808601.077 7  17891580.573          42.000         777.051
 114017186.406 7  21696749.806          43.000       -1270.312
 128238309.246 6  24402937.830          36.000        2381.652
 124093475.874 4  23614202.955          28.000       -2646.094
 135919615.846 5  25864647.043          30.000        2705.658
 115620017.283 7  22001757.003          42.000         772.412
 137064499.179 5  26082513.126          31.000         588.650

 21 10 13 16 57 39.9930000  0 25G05G10G13G15R10R22R09R16R01G18G23G24
                                G27E03R24R23R07R08E05E08E09E13E15E31
                                E36
 113031116.954 6  21509106.876          40.000       -3064.810
 112777425.097 6  21460830.147          39.000        2687.171
 107662919.082 6  20487573.861          39.000       -3259.727
  96980451.304 7  18454767.091          42.000       -1992.533
 114120089.286 5  21408635.386          34.000        3903.601
 105010254.484 5  19671958.636          31.000       -4241.445
 106556831.357 6  19954667.824          36.000        1897.878
 110626464.662 5  20709507.486          32.000       -1467.622
 110702814.071 6  20709249.569          37.000        2777.182
  95764927.615 7  18223460.747          44.000        -714.692
  99173913.838 7  18872169.082          42.000        1547.943
 101305683.033 7  19277832.349          42.000        2444.445
 117062621.621 6  22276277.790          37.000         237.881
 116362030.328 7  22142958.438          43.000        1173.731
 108854861.831 6  20356410.811          41.000        3148.564
  96532606.980 7  18045752.796          42.000         205.449
  98288915.552 7  18361196.287          44.000       -2083.585
  95807824.165 7  17891435.581          42.000         776.443
 114018456.562 7  21696991.452          42.000       -1270.652
 128235927.568 6  24402484.391          36.000        2381.314
 124096122.327 4  23614706.295          28.000       -2646.675
 135916909.378 5  25864132.157          31.000        2706.154
 115619244.744 6  22001610.249          41.000         772.039
 137063911.299 5  26082401.174          31.000         587.477

 21 10 13 16 57 41.9930000  0 25G05G10G13G15R10R22R09R16R01G18G23G24
                                G27E03R24R23R07R08E05E08E09E13E15E31
                                E36
 113037246.563 6  21510273.197          40.000       -3065.170
 112772051.057 6  21459807.626          39.000        2686.722
 107669439.230 6  20488814.752          39.000       -3260.258
  96984436.836 7  18455525.745          42.000       -1993.054
 114112282.437 5  21407170.503          34.000        3903.110
 105018737.084 5  19673548.005          31.000       -4241.744
 106553037.395 6  19953957.339          37.000        1895.886
 110629402.606 5  20710057.363          33.000       -1469.519
 110697259.213 6  20708210.279          36.000        2777.065
  95766357.937 7  18223732.963          44.000        -715.916
  99170818.291 7  18871580.001          42.000        1547.510
 101300794.844 7  19276902.265          42.000        2443.431
 117062146.465 6  22276187.407          37.000         236.864
 116359683.215 7  22142511.898          43.000        1173.116
 108848565.570 6  20355233.345          41.000        3147.507
  96532197.575 7  18045676.171          42.000         203.553
  98293082.760 7  18361974.731          44.000       -2083.887
  95806271.839 7  17891145.799          42.000         775.564
 114020997.879 7  21697475.118          42.000       -1271.103
 128231164.844 6  24401577.639          36.000        2381.318
 124101415.552 4  23615713.765          28.000       -2647.018
 135911497.355 5  25863102.798          31.000        2705.944
 115617701.403 6  22001316.743          41.000         771.122
 137062737.276 5  26082177.494          31.000         586.029

 21 10 13 16 57 42.9930000  0 25G05G10G13G15R10R22R09R16R01G18G23G24
                                G27E03R24R23R07R08E05E08E09E13E15E31
                                E36
 113040311.529 6  21510856.461          40.000       -3065.193
 112769364.061 6  21459296.319          39.000        2686.691
 107672699.558 6  20489435.286          39.000       -3260.317
  96986430.178 7  18455905.107          42.000       -1993.543
 114108379.113 5  21406438.153          34.000        3903.320
 105022978.898 5  19674342.908          31.000       -4241.425
 106551141.352 6  19953602.229          36.000        1895.693
 110630872.742 5  20710332.602          32.000       -1470.548
 110694481.983 6  20707690.521          36.000        2777.436
  95767074.023 7  18223869.286          45.000        -716.476
  99169270.868 7  18871285.485          42.000        1547.247
 101298351.460 7  19276437.241          42.000        2443.158
 117061909.775 6  22276142.403          37.000         236.307
 116358509.962 7  22142288.473          43.000        1173.139
 108845418.252 6  20354644.836          41.000        3147.095
  96531994.240 7  18045638.174          43.000         203.061
  98295166.713 7  18362363.938          44.000       -2084.095
  95805496.153 7  17891000.895          42.000         775.624
 114022268.784 7  21697716.960          42.000       -1271.010
 128228783.556 6  24401124.561          36.000        2381.287
 124104062.045 4  23616217.924          29.000       -2646.485
 135908791.503 5  25862587.971          31.000        2705.341
 115616930.350 6  22001169.911          41.000         770.690
 137062150.792 5  26082066.522          31.000         586.248

 21 10 13 16 57 43.9930000  0 25G05G10G13G15R10R22R09R16R01G18G23G24
                                G27E03R24R23R07R08E05E08E09E13E15E31
                                E36
 113043376.757 6  21511439.821          40.000       -3065.018
 112766677.227 6  21458785.037          39.000        2687.032
 107675960.215 6  20490055.749          39.000       -3260.600
  96988424.039 7  18456284.484          42.000       -1993.846
 114104476.025 5  21405705.930          34.000        3902.977
 105027221.257 5  19675137.802          31.000       -4241.987
 106549246.154 6  19953247.233          36.000        1895.364
 110632343.733 5  20710607.744          33.000       -1470.861
 110691705.076 6  20707170.956          37.000        2777.170
  95767790.881 7  18224005.682          44.000        -716.878
  99167723.847 7  18870991.034          42.000        1547.394
 101295908.721 7  19275972.458          42.000        2442.632
 117061673.860 6  22276097.585          36.000         235.488
 116357337.088 7  22142065.563          43.000        1172.953
 108842271.585 6  20354056.441          41.000        3146.746
  96531792.003 7  18045600.320          43.000         202.185
  98297251.067 7  18362753.301          44.000       -2084.436
  95804720.987 7  17890856.179          42.000         775.215
 114023540.026 7  21697958.746          42.000       -1271.136
 128226402.468 6  24400671.329          36.000        2381.347
 124106708.751 4  23616721.827          29.000       -2646.754
 135906085.839 5  25862072.822          31.000        2706.826
 115616159.853 6  22001023.378          41.000         770.506
 137061564.902 5  26081955.112          31.000         585.763

 21 10 13 16 57 45.9930000  0 26G05G10G13G15R10R22R09R16R01G18G23G24
                                G27E03R24R23R07R08E05E08E09E13E15E31
                                G29E36
 113049507.662 6  21512606.604          40.000       -3065.435
 112761303.766 6  21457762.434          39.000        2686.667
 107682482.186 6  20491297.061          39.000       -3261.156
  96992413.015 7  18457043.984          42.000       -1994.740
 114096670.121 5  21404241.225          34.000        3903.047
 105035707.056 5  19676727.354          30.000       -4243.009
 106545457.822 6  19952537.807          36.000        1893.574
 110635288.131 5  20711158.909          32.000       -1472.294
 110686151.756 6  20706131.799          36.000        2776.572
  95769226.568 7  18224278.990          44.000        -718.425
  99164630.650 6  18870402.240          41.000        1546.319
 101291024.771 7  19275043.158          42.000        2441.748
 117061203.893 6  22276008.036          36.000         234.478
 116354992.068 7  22141619.336          43.000        1172.376
 108835979.854 6  20352879.762          41.000        3145.414
  96531390.415 7  18045525.355          43.000         199.930
  98301420.440 7  18363532.169          43.000       -2084.896
  95803171.751 7  17890566.774          42.000         774.227
 114026083.137 7  21698442.768          42.000       -1271.585
 128221640.542 6  24399765.019          36.000        2381.415
 124112002.003 4  23617729.502          29.000       -2646.499
 135900675.126 5  25861042.534          31.000        2705.562
 115614620.234 6  22000730.050          41.000         769.290
 137060394.388 5  26081732.118          31.000         585.746
                  23680773.894          25.000       -3554.281

 21 10 13 16 57 46.9930000  0 26G05G10G13G15R10R22R09R16R01G18G23G24
                                G27E03R24R23R07R08E05E08E09E13E15E31
                                G29E36
 113052573.270 6  21513190.026          40.000       -3065.786
 112758617.054 6  21457251.179          39.000        2686.668
 107685743.417 6  20491917.589          39.000       -3261.419
  96994408.055 7  18457423.613          42.000       -1995.203
 114092767.220 5  21403508.940          34.000        3903.368
 105039950.452 5  19677522.314          31.000       -4242.918
 106543564.639 6  19952183.222          36.000        1892.248
 110636761.535 5  20711434.631          32.000       -1473.592
 110683375.253 6  20705612.205          36.000        2776.697
  95769945.315 7  18224415.703          44.000        -719.001
  99163084.385 6  18870107.898          41.000        1545.996
 101288583.509 7  19274578.576          42.000        2441.085
 117060969.814 6  22275963.565          36.000         233.485
 116353819.858 7  22141396.218          43.000        1172.049
 108832834.794 7  20352291.605          42.000        3144.578
  96531190.940 7  18045488.111          43.000         199.083
  98303505.406 7  18363921.596          43.000       -2085.047
  95802397.602 7  17890422.255          42.000         773.951
 114027354.929 7  21698684.934          42.000       -1271.894
 128219259.635 6  24399311.915          36.000        2380.911
 124114648.571 4  23618233.693          29.000       -2646.786
 135897969.857 5  25860527.586          31.000        2704.995
 115613851.015 6  22000583.601          41.000         769.040
 137059809.777 5  26081620.722          31.000         584.083
                  23681450.145          24.000       -3554.916

 21 10 13 16 57 47.9930000  0 25G05G10G13G15R10R22R09R16R01G18G23G24
                                G27E03R24R23R07R08E05E08E09E13E15E31
                                E36
 113055638.979 6  21513773.371          40.000       -3065.901
 112755930.363 6  21456739.867          40.000        2686.491
 107689004.812 6  20492538.282          39.000       -3261.667
  96996403.480 7  18457803.234          42.000       -1996.001
 114088864.383 5  21402776.625          34.000        3902.741
 105044194.218 5  19678317.381          31.000       -4244.291
 106541672.022 6  19951828.613          36.000        1892.358
 110638235.733 5  20711710.633          32.000       -1475.207
 110680598.928 6  20705092.701          36.000        2776.226
  95770664.694 7  18224552.571          44.000        -719.786
  99161538.371 6  18869813.660          41.000        1545.740
 101286142.724 7  19274114.271          42.000        2440.321
 117060736.308 6  22275919.114          37.000         232.780
 116352647.857 7  22141173.174          43.000        1171.790
 108829690.306 6  20351703.684          41.000        3144.355
  96530992.394 7  18045451.045          43.000         197.956
  98305590.583 7  18364311.128          43.000       -2085.445
  95801623.828 7  17890277.775          42.000         773.507
 114028626.908 7  21698926.895          42.000       -1272.287
 128216878.790 6  24398858.940          36.000        2380.869
 124117295.160 4  23618737.172          29.000       -2647.930
 135895264.710 5  25860012.623          30.000        2705.363
 115613082.233 6  22000437.256          41.000         768.409
 137059225.513 5  26081509.343          31.000         583.614

 21 10 13 16 57 50.9930000  0 26G05G10G13G15R10R22R09R16R01G18G23G24
                                G27E03R24R23R07R08E05E08E09E13E15E31
                                G29E36
 113064837.366 6  21515523.836          40.000       -3066.445
 112747870.997 6  21455206.323          40.000        2686.304
 107698790.673 6  20494400.587          39.000       -3262.437
  97002392.546 7  18458943.092          42.000       -1997.066
 114077156.807 5  21400580.046          35.000        3902.256
 105056928.204 5  19680703.380          30.000       -4245.632
 106535998.867 6  19950766.161          36.000        1889.959
 110642663.629 5  20712539.793          33.000       -1477.402
 110672271.310 6  20703534.586          37.000        2775.500
  95772827.125 7  18224964.071          44.000        -721.860
  99156902.367 6  18868931.373          41.000        1544.574
 101278823.819 7  19272721.588          42.000        2438.757
 117060040.011 6  22275786.391          36.000         230.953
 116349133.731 7  22140504.507          43.000        1171.154
 108820260.663 6  20349940.349          41.000        3142.453
  96530402.802 7  18045341.116          44.000         195.100
  98311848.057 7  18365480.096          43.000       -2086.102
  95799305.097 7  17889844.747          42.000         772.506
 114032444.454 7  21699653.300          42.000       -1272.946
 128209737.123 5  24397499.680          35.000        2380.318
 124125235.059 5  23620248.163          30.000       -2647.183
 135887150.588 5  25858467.768          30.000        2704.023
 115610778.916 6  21999999.031          41.000         766.802
 137057475.781 5  26081175.819          30.000         581.656
                  23684149.568          24.000       -3556.826

 21 10 13 16 57 51.9930000  0 26G05G10G13G15R10R22R09R16R01G18G23G24
                                G27E03R24R23R07R08E05E08E09E13E15E31
                                G29E36
 113067903.793 6  21516107.312          40.000       -3066.492
 112745184.650 6  21454695.168          40.000        2686.346
 107702053.047 6  20495021.377          39.000       -3262.516
  97004389.728 7  18459323.327          42.000       -1997.445
 114073254.479 5  21399847.836          34.000        3902.100
 105061173.663 5  19681498.718          30.000       -4246.781
 106534109.220 6  19950412.281          36.000        1889.056
 110644141.278 5  20712816.412          33.000       -1477.727
 110669495.801 6  20703015.151          37.000        2775.382
  95773549.232 7  18225101.461          44.000        -722.352
  99155357.579 6  18868637.348          41.000        1544.501
 101276385.210 7  19272257.571          42.000        2438.322
 117059809.181 6  22275742.472          36.000         230.159
 116347962.853 7  22140281.735          43.000        1170.712
 108817118.530 6  20349352.794          41.000        3141.763
  96530208.174 7  18045304.815          44.000         194.025
  98313934.394 7  18365869.809          43.000       -2086.395
  95798532.894 7  17889700.498          42.000         771.840
 114033717.374 7  21699895.584          42.000       -1272.979
 128207356.725 5  24397046.723          35.000        2380.249
 124127881.685 5  23620751.848          30.000       -2647.119
 135884446.128 5  25857953.347          30.000        2704.065
 115610012.033 6  21999852.923          41.000         766.583
 137056893.384 5  26081065.215          30.000         581.660
                  23684824.854          24.000       -3554.211

 21 10 13 16 57 52.9930000  0 26G05G10G13G15R10R22R09R16R01G18G23G24
                                G27E03R24R23R07R08E05E08E09E13E15E31
                                G29E36
 113070970.467 6  21516690.987          40.000       -3066.878
 112742498.465 6  21454183.998          40.000        2686.257
 107705315.723 6  20495642.395          39.000       -3262.906
  97006387.410 7  18459703.556          42.000       -1997.870
 114069352.366 5  21399115.657          34.000        3902.278
 105065419.468 5  19682294.197          30.000       -4245.545
 106532220.329 6  19950058.639          36.000        1888.427
 110645619.870 5  20713093.339          33.000       -1478.844
 110666720.559 6  20702496.098          37.000        2775.279
  95774272.105 7  18225238.965          44.000        -723.093
  99153813.164 6  18868343.431          41.000        1544.287
 101273947.225 7  19271793.711          42.000        2437.834
 117059579.075 6  22275698.565          36.000         229.895
 116346792.317 7  22140058.975          43.000        1170.394
 108813977.051 6  20348765.274          40.000        3141.135
  96530014.593 7  18045268.815          44.000         193.124
  98316021.039 7  18366259.683          44.000       -2086.736
  95797761.144 7  17889556.440          42.000         771.653
 114034990.613 7  21700137.903          42.000       -1273.347
 128204976.529 5  24396593.782          35.000        2379.987
 124130528.415 5  23621255.371          30.000       -2647.073
 135881741.908 5  25857439.390          30.000        2703.894
 115609245.707 6  21999707.238          41.000         766.064
 137056311.517 5  26080954.534          31.000         581.546
                  23685501.409          24.000       -3555.881

 21 10 13 16 57 53.9930000  0 26G05G10G13G15R10R22R09R16R01G18G23G24
                                G27E03R24R23R07R08E05E08E09E13E15E31
                                G29E36
 113074037.307 6  21517274.608          40.000       -3066.898
 112739812.356 6  21453672.774          39.000        2686.010
 107708578.620 6  20496263.384          39.000       -3262.707
  97008385.532 7  18460083.866          42.000       -1998.536
 114065450.421 5  21398383.731          34.000        3901.567
 105069665.797 5  19683089.871          31.000       -4246.790
 106530332.152 6  19949705.069          36.000        1887.752
 110647099.246 5  20713370.277          33.000       -1479.717
 110663945.514 6  20701977.031          37.000        2774.811
  95774995.647 7  18225376.718          44.000        -723.926
  99152269.050 6  18868049.557          41.000        1543.970
 101271509.769 7  19271329.820          42.000        2437.205
 117059349.626 6  22275654.885          36.000         229.440
 116345622.050 7  22139836.364          43.000        1169.972
 108810836.170 6  20348177.923          40.000        3140.755
  96529821.956 7  18045232.928          44.000         192.145
  98318107.936 7  18366649.457          44.000       -2087.109
  95796989.794 7  17889412.485          42.000         771.092
 114036264.075 7  21700380.152          42.000       -1273.633
 128202596.432 5  24396140.972          35.000        2379.589
 124133175.137 5  23621758.988          30.000       -2647.256
 135879037.929 5  25856925.277          31.000        2703.484
 115608479.842 6  21999561.626          41.000         765.520
 137055730.127 5  26080843.781          31.000         581.186
                  23686177.529          25.000       -3553.938

 21 10 13 16 57 54.9930000  0 26G05G10G13G15R10R22R09R16R01G18G23G24
                                G27E03R24R23R07R08E05E08E09E13E15E31
                                G29E36
 113077104.301 6  21517858.280          40.000       -3067.108
 112737126.294 6  21453161.667          39.000        2686.442
 107711841.748 6  20496884.432          39.000       -3263.398
  97010384.066 7  18460464.156          42.000       -1998.644
 114061548.552 5  21397651.686          35.000        3901.848
 105073912.435 5  19683885.191          30.000       -4246.555
 106528444.654 6  19949351.674          36.000        1887.132
 110648579.395 5  20713647.340          33.000       -1480.019
 110661170.641 6  20701457.743          37.000        2774.823
  95775719.848 7  18225514.598          44.000        -724.513
  99150725.214 6  18867755.825          41.000        1543.750
 101269072.849 7  19270866.094          42.000        2436.633
 117059120.814 6  22275611.305          36.000         228.643
 116344452.027 7  22139613.563          43.000        1169.748
 108807695.905 6  20347590.581          40.000        3140.143
  96529630.290 7  18045197.123          44.000         191.160
  98320195.098 7  18367039.392          44.000       -2087.323
  95796218.843 7  17889268.533          42.000         770.882
 114037537.748 7  21700622.389          42.000       -1273.614
 128200216.401 5  24395688.114          35.000        2379.717
 124135821.857 5  23622262.820          30.000       -2646.558
 135876334.049 5  25856410.834          31.000        2703.083
 115607714.428 6  21999416.192          41.000         765.323
 137055149.232 5  26080733.096          31.000         580.004
                  23686854.268          25.000       -3553.386

 21 10 13 16 57 55.9930000  0 26G05G10G13G15R10R22R09R16R01G18G23G24
                                G27E03R24R23R07R08E05E08E09E13E15E31
                                G29E36
 113080171.510 6  21518441.960          40.000       -3067.230
 112734440.378 6  21452650.563          39.000        2686.233
 107715105.158 6  20497505.535          39.000       -3263.536
  97012383.084 7  18460844.485          42.000       -1999.207
 114057646.905 5  21396919.598          35.000        3902.099
 105078159.567 5  19684680.827          30.000       -4247.400
 106526557.931 6  19948998.205          36.000        1886.522
 110650060.485 5  20713924.471          33.000       -1480.943
 110658396.021 6  20700938.833          38.000        2774.480
  95776444.779 7  18225652.583          44.000        -725.217
  99149181.733 6  18867462.118          41.000        1543.542
 101266636.505 7  19270402.433          42.000        2436.346
 117058892.745 6  22275567.830          36.000         227.812
 116343282.327 7  22139390.979          43.000        1169.661
 108804556.287 6  20347003.320          40.000        3139.698
  96529439.640 7  18045161.550          44.000         190.539
  98322282.606 7  18367429.447          44.000       -2087.487
  95795448.355 7  17889124.691          42.000         770.593
 114038811.714 7  21700864.925          42.000       -1273.978
 128197836.533 5  24395235.256          35.000        2379.914
 124138468.674 5  23622766.780          30.000       -2646.468
 135873630.354 5  25855896.447          31.000        2703.869
 115606949.548 6  21999270.780          41.000         764.737
 137054568.754 5  26080622.323          30.000         580.022
                  23687530.628          25.000       -3552.872

 21 10 13 16 57 56.9930000  0 26G05G10G13G15R10R22R09R16R01G18G23G24
                                G27E03R24R23R07R08E05E08E09E13E15E31
                                G29E36
 113083238.849 6  21519025.728          40.000       -3067.637
 112731754.509 6  21452139.417          39.000        2685.763
 107718368.741 6  20498126.592          39.000       -3263.723
  97014382.494 7  18461224.882          42.000       -1999.617
 114053745.349 5  21396187.671          35.000        3901.277
 105082407.066 5  19685476.699          30.000       -4247.982
 106524671.925 6  19948645.045          36.000        1885.894
 110651542.389 5  20714201.840          32.000       -1482.145
 110655621.543 6  20700419.714          38.000        2774.413
  95777170.344 7  18225790.604          44.000        -725.932
  99147638.509 6  18867168.465          41.000        1543.250
 101264200.662 7  19269938.930          42.000        2435.555
 117058665.271 6  22275524.542          37.000         226.921
 116342112.855 7  22139168.611          43.000        1169.299
 108801417.214 6  20346416.253          40.000        3138.888
  96529249.931 7  18045126.096          44.000         189.191
  98324370.360 7  18367819.393          44.000       -2087.898
  95794678.216 7  17888980.906          42.000         769.974
 114040085.869 7  21701107.304          42.000       -1274.606
 128195456.709 5  24394782.494          35.000        2380.320
 124141115.452 5  23623270.796          30.000       -2647.068
 135870926.826 5  25855382.037          31.000        2703.148
 115606185.098 6  21999125.426          41.000         763.987
 137053988.774 5  26080511.830          30.000         579.407
                  23688206.710          24.000       -3554.542

 21 10 13 16 57 57.9930000  0 26G05G10G13G15R10R22R09R16R01G18G23G24
                                G27E03R24R23R07R08E05E08E09E13E15E31
                                G29E36
 113086306.489 6  21519609.470          40.000       -3067.669
 112729068.850 6  21451628.365          39.000        2685.354
 107721632.717 6  20498747.763          39.000       -3264.204
  97016382.480 7  18461605.486          42.000       -2000.072
 114049844.063 5  21395455.678          35.000        3900.906
 105086655.097 5  19686272.464          30.000       -4248.650
 106522786.765 6  19948292.105          36.000        1884.384
 110653025.269 5  20714479.407          32.000       -1483.715
 110652847.413 6  20699900.677          38.000        2774.004
  95777896.733 7  18225928.765          44.000        -726.791
  99146095.732 6  18866874.975          41.000        1542.834
 101261765.521 7  19269475.522          42.000        2434.655
 117058438.558 6  22275481.339          37.000         226.835
 116340943.786 7  22138946.124          43.000        1168.875
 108798278.841 6  20345829.413          40.000        3137.952
  96529061.337 7  18045090.789          44.000         188.021
  98326458.539 7  18368209.491          44.000       -2088.250
  95793908.579 7  17888837.122          42.000         769.473
 114041360.385 7  21701349.834          42.000       -1274.630
 128193077.201 5  24394329.536          35.000        2379.389
 124143762.406 5  23623774.248          30.000       -2646.827
 135868223.580 5  25854867.969          31.000        2703.260
 115605421.255 6  21998979.983          41.000         763.504
 137053409.344 5  26080402.096          31.000         578.942
                  23688883.172          24.000       -3553.274

 21 10 13 16 57 58.9930000  0 25G05G10G13G15R10R22R09R16R01G18G23G24
                                G27E03R24R23R07R08E05E08E09E13E15E31
                                E36
 113089374.245 6  21520193.329          40.000       -3068.162
 112726383.202 6  21451117.325          39.000        2685.378
 107724896.835 6  20499368.893          40.000       -3264.420
  97018382.851 7  18461986.292          42.000       -2000.951
 114045942.776 5  21394723.798          35.000        3901.137
 105090903.429 5  19687068.260          30.000       -4248.446
 106520902.214 6  19947939.067          36.000        1884.455
 110654508.914 5  20714757.030          32.000       -1484.720
 110650073.409 6  20699381.800          38.000        2773.587
  95778623.715 7  18226067.115          44.000        -727.366
  99144553.185 6  18866581.305          41.000        1542.261
 101259330.813 7  19269012.355          42.000        2434.302
 117058212.492 6  22275438.228          37.000         225.332
 116339774.919 7  22138723.752          43.000        1168.573
 108795140.928 6  20345242.580          40.000        3137.449
  96528873.637 7  18045055.767          44.000         187.108
  98328546.892 7  18368599.649          44.000       -2088.724
  95793139.259 7  17888693.561          42.000         768.905
 114042635.060 7  21701592.456          43.000       -1274.898
 128190697.688 5  24393876.481          34.000        2379.328
 124146409.269 5  23624277.899          30.000       -2645.963
 135865520.478 5  25854353.879          31.000        2702.929
 115604657.804 6  21998834.722          41.000         763.246
 137052830.260 5  26080292.455          30.000         579.314

 21 10 13 16 57 59.9930000  0 25G05G10G13G15R10R22R09R16R01G18G23G24
                                G27E03R24R23R07R08E05E08E09E13E15E31
                                E36
 113092442.063 6  21520777.158          40.000       -3067.718
 112723697.545 6  21450606.201          39.000        2685.762
 107728161.103 6  20499990.148          40.000       -3264.204
  97020383.520 7  18462366.927          42.000       -2000.330
 114042041.517 5  21393991.955          35.000        3902.000
 105095152.104 5  19687864.288          30.000       -4248.409
 106519018.320 6  19947586.468          36.000        1883.518
 110655993.248 5  20715034.794          32.000       -1484.751
 110647299.502 6  20698862.803          38.000        2773.774
  95779351.288 7  18226205.523          44.000        -727.778
  99143010.836 7  18866287.714          42.000        1542.395
 101256896.572 7  19268549.124          42.000        2434.163
 117057986.924 6  22275395.275          37.000         225.657
 116338606.237 7  22138501.484          43.000        1168.727
 108792003.527 6  20344655.876          40.000        3137.233
  96528686.839 7  18045020.786          44.000         186.417
  98330635.398 7  18368989.880          44.000       -2088.570
  95792370.224 7  17888549.993          42.000         768.945
 114043909.874 7  21701834.973          43.000       -1274.707
 128188318.172 5  24393423.718          34.000        2380.074
 124149056.135 5  23624781.535          30.000       -2646.807
 135862817.382 5  25853839.857          31.000        2703.345
 115603894.744 6  21998689.628          41.000         762.988
 137052251.612 5  26080182.522          30.000         579.027

 21 10 13 16 58  0.9930000  0 25G05G10G13G15R10R22R09R16R01G18G23G24
                                G27E03R24R23R07R08E05E08E09E13E15E31
                                E36
 113095509.932 6  21521360.859          40.000       -3068.044
 112721011.826 6  21450095.161          39.000        2685.601
 107731425.440 6  20500611.452          40.000       -3264.225
  97022384.533 7  18462747.526          42.000       -2001.283
 114038140.282 5  21393260.148          35.000        3901.003
 105099401.043 5  19688660.273          30.000       -4249.030
 106517134.977 6  19947233.884          36.000        1882.939
 110657478.360 5  20715312.918          32.000       -1485.816
 110644525.673 6  20698343.896          38.000        2773.560
  95780079.403 7  18226344.115          44.000        -728.551
  99141468.662 6  18865994.253          41.000        1541.925
 101254462.734 7  19268086.078          42.000        2433.586
 117057761.941 6  22275352.435          37.000         224.478
 116337437.679 7  22138279.038          43.000        1168.461
 108788866.581 6  20344069.213          40.000        3136.518
  96528500.883 7  18044986.044          44.000         185.351
  98332724.054 7  18369380.090          44.000       -2089.041
  95791601.457 7  17888406.522          42.000         768.492
 114045184.792 7  21702077.335          42.000       -1275.080
 128185938.637 5  24392970.747          34.000        2379.572
 124151702.818 5  23625285.729          30.000       -2646.800
 135860114.415 5  25853326.009          31.000        2702.536
 115603132.026 6  21998544.366          41.000         762.262
 137051673.285 5  26080072.769          31.000         577.798

 21 10 13 16 58  1.9930000  0 25G05G10G13G15R10R22R09R16R01G18G23G24
                                G27E03R24R23R07R08E05E08E09E13E15E31
                                E36
 113098577.945 6  21521944.730          40.000       -3067.759
 112718326.174 6  21449584.074          39.000        2685.780
 107734690.042 6  20501232.676          40.000       -3264.295
  97024385.949 7  18463128.423          42.000       -2001.519
 114034239.113 5  21392528.154          35.000        3901.308
 105103650.403 5  19689456.368          31.000       -4248.810
 106515252.353 6  19946881.385          36.000        1882.787
 110658964.280 5  20715591.110          32.000       -1486.703
 110641752.011 6  20697824.952          38.000        2773.767
  95780808.181 7  18226482.834          44.000        -728.829
  99139926.777 6  18865700.834          41.000        1541.730
 101252029.440 7  19267623.026          42.000        2433.018
 117057537.567 6  22275309.624          37.000         224.475
 116336269.397 7  22138056.658          44.000        1168.175
 108785730.283 6  20343482.696          40.000        3136.252
  96528315.901 7  18044951.389          44.000         184.687
  98334812.970 7  18369770.314          44.000       -2088.903
  95790833.095 7  17888263.145          42.000         768.508
 114046459.940 7  21702320.235          42.000       -1275.210
 128183559.247 5  24392517.898          34.000        2379.275
 124154349.560 5  23625789.649          30.000       -2646.675
 135857411.503 5  25852811.509          31.000        2703.424
 115602369.763 6  21998399.310          41.000         762.238
 137051095.440 5  26079962.530          30.000         576.841

 21 10 13 16 58  2.9930000  0 25G05G10G13G15R10R22R09R16R01G18G23G24
                                G27E03R24R23R07R08E05E08E09E13E15E31
                                E36
 113101645.986 6  21522528.511          40.000       -3068.244
 112715640.458 6  21449072.983          38.000        2685.324
 107737954.712 6  20501853.841          40.000       -3265.072
  97026387.641 7  18463509.450          42.000       -2002.239
 114030337.913 5  21391796.274          35.000        3900.779
 105107900.026 5  19690252.449          30.000       -4250.675
 106513370.271 6  19946528.966          36.000        1881.587
 110660450.884 5  20715869.372          32.000       -1486.793
 110638978.383 6  20697306.163          38.000        2773.562
  95781537.491 7  18226621.677          44.000        -729.939
  99138385.006 6  18865407.504          41.000        1541.663
 101249596.489 7  19267160.020          42.000        2432.853
 117057313.730 6  22275266.895          37.000         223.141
 116335101.207 7  22137834.527          44.000        1167.971
 108782594.409 6  20342896.262          40.000        3135.444
  96528131.727 7  18044917.048          44.000         183.528
  98336901.990 7  18370160.576          44.000       -2089.229
  95790064.963 7  17888119.744          42.000         767.734
 114047735.139 7  21702563.176          42.000       -1275.444
 128181179.768 5  24392065.058          34.000        2379.291
 124156996.081 5  23626293.269          31.000       -2646.208
 135854708.720 5  25852297.274          31.000        2701.553
 115601607.809 6  21998254.264          41.000         761.595
 137050517.838 5  26079852.375          30.000         576.713

